[
{
    "type": "header",
    "version": "4.7.7",
    "comment": "Export to JSON plugin for PHPMyAdmin"
},
{
    "type": "database",
    "name": "peche_wp673"
},
{
    "type": "table",
    "name": "dcp",
    "database": "peche_wp673",
    "data": 
[
{
    "id": "2",
    "nom": "Toombo",
    "position": "",
    "lat": "",
    "lng": "",
    "date_derniere_maj": "01\/03\/2018",
    "etat": "disparu",
    "localisation": "ps"
},
{
    "id": "3",
    "nom": "Ile des Pins",
    "position": "",
    "lat": "",
    "lng": "",
    "date_derniere_maj": "01\/03\/2018",
    "etat": "disparu",
    "localisation": "ps"
},
{
    "id": "4",
    "nom": "Ever Prosperity",
    "position": "22\u00b029.601 S 166\u00b016.017 E",
    "lat": "-22.6502778",
    "lng": "166.2713888888889",
    "date_derniere_maj": "01\/03\/2018",
    "etat": "normal",
    "localisation": "ps"
},
{
    "id": "5",
    "nom": "Pointe \u00e0 R\u00e9mi",
    "position": "",
    "lat": "",
    "lng": "",
    "date_derniere_maj": "01\/03\/2018",
    "etat": "disparu",
    "localisation": "ps"
},
{
    "id": "6",
    "nom": "Cap Goulvain",
    "position": "",
    "lat": "",
    "lng": "",
    "date_derniere_maj": "01\/03\/2018",
    "etat": "disparu",
    "localisation": "ps"
},
{
    "id": "7",
    "nom": "Isi\u00e9",
    "position": "22\u00b001,642' S 165\u00b047,397' E",
    "lat": "-22.195",
    "lng": "165.8936111111111",
    "date_derniere_maj": "01\/03\/2018",
    "etat": "normal",
    "localisation": "ps"
},
{
    "id": "8",
    "nom": "Ouara\u00ef",
    "position": "21\u00b054.185 S - 165\u00b038.294 E",
    "lat": "-21.9513889",
    "lng": "165.715",
    "date_derniere_maj": "04\/03\/2018",
    "etat": "normal",
    "localisation": "ps"
},
{
    "id": "9",
    "nom": "Bourail",
    "position": "21\u00b044,324' S 165\u00b019,392E",
    "lat": "-21.8233333",
    "lng": "165.42555555555555",
    "date_derniere_maj": "26\/12\/2017",
    "etat": "normal",
    "localisation": "ps"
},
{
    "id": "10",
    "nom": "Passe de Canala",
    "position": "21\u00b015,206' S 166\u00b002,585' E",
    "lat": "-21.3072222",
    "lng": "166.19583333333333",
    "date_derniere_maj": "\u00a022\/08\/17\u00a0",
    "etat": "normal",
    "localisation": "pn"
},
{
    "id": "11",
    "nom": "Passe du Duroc",
    "position": "21\u00b007,080' S 164\u00b030,620' E",
    "lat": "-21.1388889",
    "lng": "164.67222222222222",
    "date_derniere_maj": "\u00a022\/08\/17",
    "etat": "normal",
    "localisation": "pn"
},
{
    "id": "12",
    "nom": "Passe de Goyeta",
    "position": "21\u00b023,875' S 164\u00b047,056' E",
    "lat": "-21.6263889",
    "lng": "164.79888888888888",
    "date_derniere_maj": "22\/08\/2017",
    "etat": "normal",
    "localisation": "pn"
},
{
    "id": "13",
    "nom": "Passe de Koumac",
    "position": "20\u00b043,036' S 164\u00b008,014' E",
    "lat": "-20.7266667",
    "lng": "164.13722222222222",
    "date_derniere_maj": "\u00a022\/08\/17",
    "etat": "normal",
    "localisation": "pn"
},
{
    "id": "14",
    "nom": "Passe de Mu\u00e9o",
    "position": "21\u00b028,590' S 164\u00b054,255' E",
    "lat": "-21.6305556",
    "lng": "164.97083333333333",
    "date_derniere_maj": "22\/08\/2017",
    "etat": "normal",
    "localisation": "pn"
},
{
    "id": "15",
    "nom": "Cap Baye",
    "position": "20\u00b050,764' S 165\u00b036,387' E",
    "lat": "-21.0455556",
    "lng": "165.70749999999998",
    "date_derniere_maj": "22\/08\/2017",
    "etat": "normal",
    "localisation": "pn"
},
{
    "id": "16",
    "nom": "Poindimi\u00e9 - Passe Centrale",
    "position": "20\u00b047,357' S 165\u00b023,914' E",
    "lat": "-20.8825",
    "lng": "165.63722222222222",
    "date_derniere_maj": "\u00a022\/08\/17",
    "etat": "normal",
    "localisation": "pn"
},
{
    "id": "17",
    "nom": "Hiengh\u00e8ne",
    "position": "20\u00b029,221' S 165\u00b009,232' E",
    "lat": "-20.5447222",
    "lng": "165.2138888888889",
    "date_derniere_maj": "22\/08\/17\u00a0",
    "etat": "normal",
    "localisation": "pn"
},
{
    "id": "18",
    "nom": "Poya - 'Contrari\u00e9t\u00e9'",
    "position": "21\u00b033,450' S 165\u00b000,829' E",
    "lat": "-21.675",
    "lng": "165.2302777777778",
    "date_derniere_maj": "22\/08\/17\u00a0",
    "etat": "normal",
    "localisation": "pn"
},
{
    "id": "19",
    "nom": "KAALA-GOMEN Ouaco",
    "position": "21\u00b007,552' S 164\u00b024,196' E",
    "lat": "-21.27",
    "lng": "164.45444444444445",
    "date_derniere_maj": "22\/08\/2017",
    "etat": "normal",
    "localisation": "pn"
},
{
    "id": "20",
    "nom": "KONE Grand coude",
    "position": "21\u00b013,730' S 164\u00b039,230' E",
    "lat": "-21.4194444",
    "lng": "164.7138888888889",
    "date_derniere_maj": "22\/08\/2017",
    "etat": "normal",
    "localisation": "pn"
},
{
    "id": "21",
    "nom": "Houa\u00eflou",
    "position": "21\u00b000,424' S 165\u00b045,082' E\u00a0",
    "lat": "-21.1177778",
    "lng": "165.77277777777778",
    "date_derniere_maj": "\u00a022\/08\/17",
    "etat": "normal",
    "localisation": "pn"
},
{
    "id": "22",
    "nom": "Jozip",
    "position": "20\u00b055,230' S 167\u00b021,180' E",
    "lat": "-20.9805556",
    "lng": "167.4",
    "date_derniere_maj": "28\/08\/2017",
    "etat": "normal",
    "localisation": "lifou"
},
{
    "id": "23",
    "nom": "Joking",
    "position": "20\u00b041,070' S 167\u00b009,240' E",
    "lat": "-20.7027778",
    "lng": "167.21666666666667",
    "date_derniere_maj": "\u00a028\/08\/17",
    "etat": "normal",
    "localisation": "lifou"
},
{
    "id": "24",
    "nom": "Large cap Daussy",
    "position": "20\u00b052,350' S 167\u00b001,000 E",
    "lat": "-20.9638889",
    "lng": "167.01666666666668",
    "date_derniere_maj": "28\/08\/17\u00a0",
    "etat": "normal",
    "localisation": "lifou"
},
{
    "id": "25",
    "nom": "Entre r\u00e9cif Shelter et cap Lefebvre",
    "position": "20\u00b053,300'S 167\u00b002,400'E",
    "lat": "-20.9638889",
    "lng": "167.01666666666668",
    "date_derniere_maj": "28\/08\/2017",
    "etat": "normal",
    "localisation": "lifou"
},
{
    "id": "26",
    "nom": "Mou",
    "position": "21\u00b007'136' S 167\u00b028,107' E",
    "lat": "-21.1544444",
    "lng": "167.4963888888889",
    "date_derniere_maj": "24\/08\/2017",
    "etat": "normal",
    "localisation": "lifou"
},
{
    "id": "27",
    "nom": "Cap des Pins",
    "position": "21\u00b000,565' S 167\u00b030,418' E",
    "lat": "-21.1569444",
    "lng": "167.6161111111111",
    "date_derniere_maj": "24\/08\/2017",
    "etat": "normal",
    "localisation": "lifou"
},
{
    "id": "28",
    "nom": "Cap d'Aussy",
    "position": "20\u00b057,502' S 167\u00b028,110' E",
    "lat": "-21.0894444",
    "lng": "167.49722222222223",
    "date_derniere_maj": "24\/08\/2017",
    "etat": "normal",
    "localisation": "lifou"
},
{
    "id": "29",
    "nom": "Large baie de Ch\u00e2teaubriand",
    "position": "20\u00b052,352' S 167\u00b030,763' E",
    "lat": "-20.9644444",
    "lng": "167.71194444444444",
    "date_derniere_maj": "24\/08\/2017",
    "etat": "normal",
    "localisation": "lifou"
},
{
    "id": "30",
    "nom": "Nord de la passe d'Anemata",
    "position": "20\u00b040,510' S 166\u00b020,290' E",
    "lat": "-20.8083333",
    "lng": "166.4138888888889",
    "date_derniere_maj": "\u00a028\/08\/17",
    "etat": "normal",
    "localisation": "ouvea"
},
{
    "id": "31",
    "nom": "Cap Escarp\u00e9",
    "position": "20\u00b029,210' S 166\u00b037,380' E",
    "lat": "-20.5416667",
    "lng": "166.72222222222223",
    "date_derniere_maj": "\u00a028\/08\/17",
    "etat": "normal",
    "localisation": "ouvea"
},
{
    "id": "32",
    "nom": "Dudune",
    "position": "21\u00b019,330' S 167\u00b041,070' E",
    "lat": "-21.4083333",
    "lng": "167.70277777777778",
    "date_derniere_maj": "28\/08\/2017",
    "etat": "normal",
    "localisation": "mare"
},
{
    "id": "33",
    "nom": "Baie du Nord",
    "position": "21\u00b015,590' S 167\u00b055,600' E",
    "lat": "-21.4138889",
    "lng": "168.08333333333331",
    "date_derniere_maj": "\u00a028\/08\/17",
    "etat": "normal",
    "localisation": "mare"
},
{
    "id": "34",
    "nom": "\u00a0Baie de l'Allier",
    "position": "21\u00b021'180' S 168\u00b004,950' E",
    "lat": "-21.4",
    "lng": "168.33055555555555",
    "date_derniere_maj": "\u00a028\/08\/17",
    "etat": "normal",
    "localisation": "mare"
},
{
    "id": "35",
    "nom": "Baie de Niri",
    "position": "21\u00b038,210' S 167\u00b053,082' E",
    "lat": "-21.6916667",
    "lng": "167.9061111111111",
    "date_derniere_maj": "\u00a028\/08\/17",
    "etat": "normal",
    "localisation": "mare"
}
]

}
]
